{
  "locations": [
    {
      "id": 1,
      "name": "fsn1",
      "city": "Falkenstein",
      "country": "DE",
      "description": "Falkenstein Datacenter Park – eu-central zone",
      "network_zone": "eu-central",
      "datacenter": {
        "id": 1,
        "name": "fsn1-dc14",
        "country": "DE",
        "region": "Saxony",
        "latitude": 50.478,
        "longitude": 12.371
      }
    },
    {
      "id": 2,
      "name": "nbg1",
      "city": "Nürnberg",
      "country": "DE",
      "description": "Nuremberg Datacenter Park – eu-central zone",
      "network_zone": "eu-central",
      "datacenter": {
        "id": 2,
        "name": "nbg1-dc3",
        "country": "DE",
        "region": "Bavaria",
        "latitude": 49.452,
        "longitude": 11.076
      }
    },
    {
      "id": 3,
      "name": "hel1",
      "city": "Helsinki",
      "country": "FI",
      "description": "Helsinki Datacenter – eu-central zone",
      "network_zone": "eu-central",
      "datacenter": {
        "id": 3,
        "name": "hel1-dc2",
        "country": "FI",
        "region": "Uusimaa",
        "latitude": 60.169,
        "longitude": 24.938
      }
    },
    {
      "id": 4,
      "name": "ash",
      "city": "Ashburn, VA",
      "country": "US",
      "description": "US-East Region – Ashburn Datacenter",
      "network_zone": "us-east",
      "datacenter": {
        "id": 4,
        "name": "ash-dc1",
        "country": "US",
        "region": "Virginia",
        "latitude": 39.043,
        "longitude": -77.487
      }
    },
    {
      "id": 5,
      "name": "hil",
      "city": "Hillsboro, OR",
      "country": "US",
      "description": "US-West Region – Hillsboro Datacenter",
      "network_zone": "us-west",
      "datacenter": {
        "id": 5,
        "name": "hil-dc1",
        "country": "US",
        "region": "Oregon",
        "latitude": 45.523,
        "longitude": -122.989
      }
    },
    {
      "id": 6,
      "name": "sin",
      "city": "Singapur",
      "country": "SG",
      "description": "Asia-Pacific Region – Singapore Datacenter",
      "network_zone": "ap-southeast",
      "datacenter": {
        "id": 6,
        "name": "sin-dc1",
        "country": "SG",
        "region": "Singapore",
        "latitude": 1.352,
        "longitude": 103.820
      }
    }
  ],
  "meta": {
    "version": "1.0.0",
    "source": "mock",
    "generated": "2025-10-27T13:00:00Z"
  }
}
